{
  "serviceStations": [
    {
      "_id": "toilet_1",
      "id": 1,
      "name": "方泰新公厕",
      "address": "花园浜路泰盛别墅",
      "serviceTime": "5:00-21:00",
      "longitude": 121.217424,
      "latitude": 31.314409,
      "type": "toilet",
      "photoUrl": "/images/stations/toilet-1.jpg",
      "serviceContent": "公共厕所"
    },
    {
      "_id": "toilet_2",
      "id": 2,
      "name": "方泰菜场公厕",
      "address": "方锦路44号花园新村东面",
      "serviceTime": "5:00-20:00",
      "longitude": 121.216674,
      "latitude": 31.317756,
      "type": "toilet",
      "photoUrl": "/images/stations/toilet-2.jpg",
      "serviceContent": "公共厕所"
    },
    {
      "_id": "toilet_3",
      "id": 3,
      "name": "方中路1号公厕",
      "address": "方中路101弄1号旁边",
      "serviceTime": "5:00-20:00",
      "longitude": 121.21552,
      "latitude": 31.319254,
      "type": "toilet",
      "photoUrl": "/images/stations/toilet-3.jpg",
      "serviceContent": "公共厕所"
    },
    {
      "_id": "toilet_4",
      "id": 4,
      "name": "泰富路265号公厕",
      "address": "泰富路265号成人学校旁边",
      "serviceTime": "5:00-20:00",
      "longitude": 121.218929,
      "latitude": 31.319004,
      "type": "toilet",
      "photoUrl": "/images/stations/toilet-4.jpg",
      "serviceContent": "公共厕所"
    },
    {
      "_id": "toilet_5",
      "id": 5,
      "name": "泰富路222号公厕",
      "address": "泰富路方宝佳苑",
      "serviceTime": "5:00-20:00",
      "longitude": 121.219847,
      "latitude": 31.319059,
      "type": "toilet",
      "photoUrl": "/images/stations/toilet-5.jpg",
      "serviceContent": "公共厕所"
    },
    {
      "_id": "toilet_6",
      "id": 6,
      "name": "方中路84号公厕",
      "address": "方中路77弄花中苑对面",
      "serviceTime": "24小时",
      "longitude": 121.216661,
      "latitude": 31.3207,
      "type": "toilet",
      "photoUrl": "/images/stations/toilet-6.jpg",
      "serviceContent": "公共厕所"
    },
    {
      "_id": "warm_1",
      "id": 1,
      "name": "方泰党群服务中心",
      "address": "宝安公路4535号",
      "serviceTime": "9:00-20:30",
      "longitude": 121.217191,
      "latitude": 31.315952,
      "type": "warm",
      "photoUrl": "/images/stations/warm-1.jpg",
      "serviceContent": "免费饮水、休憩、应急物资、如厕"
    },
    {
      "_id": "warm_2",
      "id": 2,
      "name": "安亭·上海数字汽车园党群服务中心",
      "address": "百安路528号",
      "serviceTime": "9:00-20:30",
      "longitude": 121.203435,
      "latitude": 31.316464,
      "type": "warm",
      "photoUrl": "/images/stations/warm-2.jpg",
      "serviceContent": "免费饮水、休憩、应急物资、如厕"
    },
    {
      "_id": "warm_3",
      "id": 3,
      "name": "星明村邻里中心",
      "address": "星明村850号",
      "serviceTime": "9:00-20:30",
      "longitude": 121.249254,
      "latitude": 31.306452,
      "type": "warm",
      "photoUrl": "/images/stations/warm-3.jpg",
      "serviceContent": "免费饮水、休憩、应急物资、如厕"
    },
    {
      "_id": "warm_4",
      "id": 4,
      "name": "方泰社区居委会",
      "address": "宝安公路4505号",
      "serviceTime": "8:30-11:00, 13:00-17:00",
      "longitude": 121.217576,
      "latitude": 31.316919,
      "type": "warm",
      "photoUrl": "/images/stations/warm-4.jpg",
      "serviceContent": "免费饮水、休憩、应急物资、如厕"
    },
    {
      "_id": "warm_5",
      "id": 5,
      "name": "泰顺社区居委会",
      "address": "泰顺路451号",
      "serviceTime": "8:30-11:00, 13:00-17:00",
      "longitude": 121.21836,
      "latitude": 31.317131,
      "type": "warm",
      "photoUrl": "/images/stations/warm-5.jpg",
      "serviceContent": "免费饮水、休憩、应急物资、如厕"
    },
    {
      "_id": "warm_6",
      "id": 6,
      "name": "泰东社区居委会",
      "address": "东环路207号",
      "serviceTime": "8:30-11:00, 13:00-17:00",
      "longitude": 121.22363,
      "latitude": 31.321054,
      "type": "warm",
      "photoUrl": "/images/stations/warm-6.jpg",
      "serviceContent": "免费饮水、休憩、应急物资、如厕"
    },
    {
      "_id": "warm_7",
      "id": 7,
      "name": "讴象社区居委会",
      "address": "园区路301弄38号",
      "serviceTime": "8:30-11:00, 13:00-17:00",
      "longitude": 121.521867,
      "latitude": 31.073101,
      "type": "warm",
      "photoUrl": "/images/stations/warm-7.jpg",
      "serviceContent": "免费饮水、休憩、应急物资、如厕"
    },
    {
      "_id": "sinopec_1",
      "id": 1,
      "name": "吉泰加油站",
      "address": "宝安公路4205号",
      "serviceTime": "24小时",
      "longitude": 121.230464,
      "latitude": 31.317401,
      "type": "sinopec",
      "photoUrl": "/images/stations/sinopec-1.jpg",
      "serviceContent": "饮水、手机充电、简易维修工具、垃圾收集"
    },
    {
      "_id": "sinopec_2",
      "id": 2,
      "name": "嘉泰加油站",
      "address": "嘉松北路4445号",
      "serviceTime": "24小时",
      "longitude": 121.220657,
      "latitude": 31.315552,
      "type": "sinopec",
      "photoUrl": "/images/stations/sinopec-2.jpg",
      "serviceContent": "饮水、手机充电、简易维修工具、垃圾收集"
    },
    {
      "_id": "sinopec_3",
      "id": 3,
      "name": "百安加油站",
      "address": "宝安公路4928号",
      "serviceTime": "24小时",
      "longitude": 121.197702,
      "latitude": 31.314387,
      "type": "sinopec",
      "photoUrl": "/images/stations/sinopec-3.jpg",
      "serviceContent": "饮水、手机充电、简易维修工具、垃圾收集"
    },
    {
      "_id": "sinopec_4",
      "id": 4,
      "name": "安亭加油站（司机之家）",
      "address": "曹安公路5387号",
      "serviceTime": "24小时",
      "longitude": 121.170798,
      "latitude": 31.288444,
      "type": "sinopec",
      "photoUrl": "/images/stations/sinopec-4.jpg",
      "serviceContent": "休息室（按摩椅）、饮水、热饭、洗澡、洗衣、充电、应急药品、血压测量、修车工具箱、图书角"
    },
    {
      "_id": "partner_1",
      "id": 1,
      "name": "老盛昌（宝安店）",
      "address": "宝安公路4535号",
      "serviceTime": "6:30-20:30",
      "longitude": 121.217191,
      "latitude": 31.315952,
      "type": "partner",
      "photoUrl": "/images/stations/partner-1.jpg",
      "serviceContent": "骑手12元优惠套餐"
    },
    {
      "_id": "partner_2",
      "id": 2,
      "name": "上海鑫哈轴承机电有限公司",
      "address": "安亭镇安亭路255弄",
      "serviceTime": "8:00-17:00",
      "longitude": 121.234896,
      "latitude": 31.311677,
      "type": "partner",
      "photoUrl": "/images/stations/partner-2.jpg",
      "serviceContent": "免费饮水、休憩、如厕"
    },
    {
      "_id": "partner_3",
      "id": 3,
      "name": "比星咖啡店",
      "address": "百安路528号",
      "serviceTime": "7:30-18:00",
      "longitude": 121.203435,
      "latitude": 31.31364,
      "type": "partner",
      "photoUrl": "/images/stations/partner-3.jpg",
      "serviceContent": "（对骑士友好店）免费饮水、休憩、如厕"
    },
    {
      "_id": "partner_4",
      "id": 4,
      "name": "麦当劳",
      "address": "百安路528号4幢",
      "serviceTime": "7:00-23:00",
      "longitude": 121.196185,
      "latitude": 31.323633,
      "type": "partner",
      "photoUrl": "/images/stations/partner-4.jpg",
      "serviceContent": "（对骑士友好店）免费饮水、休憩、如厕"
    },
    {
      "_id": "relay_1",
      "id": 1,
      "name": "方泰文化分中心",
      "address": "安亭镇嘉松北路4355号",
      "serviceTime": "8:30-20:00",
      "longitude": 121.21882,
      "latitude": 31.318338,
      "type": "relay",
      "photoUrl": "/images/stations/relay-1.jpg",
      "serviceContent": "饮水供给、避暑取暖、餐食加热、手机充电、应急药箱"
    },
    {
      "_id": "relay_2",
      "id": 2,
      "name": "方泰敬老院",
      "address": "安亭镇方中路160号",
      "serviceTime": "24小时",
      "longitude": 121.212885,
      "latitude": 31.318052,
      "type": "relay",
      "photoUrl": "/images/stations/relay-2.jpg",
      "serviceContent": "饮水供给、避暑取暖、餐食加热、手机充电、应急药箱"
    },
    {
      "_id": "relay_3",
      "id": 3,
      "name": "数字汽车园邻里中心（比星咖啡店）",
      "address": "百安路528号",
      "serviceTime": "7:30-18:00",
      "longitude": 121.203435,
      "latitude": 31.31364,
      "type": "relay",
      "photoUrl": "/images/stations/relay-3.jpg",
      "serviceContent": "饮水供给、避暑取暖、餐食加热、手机充电、应急药箱"
    },
    {
      "_id": "relay_4",
      "id": 4,
      "name": "百安加油站",
      "address": "宝安公路4928号",
      "serviceTime": "24小时",
      "longitude": 121.197702,
      "latitude": 31.314387,
      "type": "relay",
      "photoUrl": "/images/stations/relay-4.jpg",
      "serviceContent": "饮水供给、避暑取暖、餐食加热、手机充电、应急药箱"
    },
    {
      "_id": "relay_5",
      "id": 5,
      "name": "安亭老街职工服务站",
      "address": "安亭镇安亭街1788号",
      "serviceTime": "周一至周五8:30-17:00",
      "longitude": 121.158382,
      "latitude": 31.290388,
      "type": "relay",
      "photoUrl": "/images/stations/relay-5.jpg",
      "serviceContent": "饮水供给（茶饮及冷饮）、避暑取暖、餐食加热、手机充电、应急药箱"
    }
  ],
  "typeConfig": {
    "toilet": {
      "name": "公共厕所",
      "icon": "/images/icons/toilet.png",
      "color": "#4CAF50"
    },
    "warm": {
      "name": "暖心服务站", 
      "icon": "/images/icons/warm.png",
      "color": "#FF9800"
    },
    "sinopec": {
      "name": "爱心驿站",
      "icon": "/images/icons/sinopec.png", 
      "color": "#2196F3"
    },
    "partner": {
      "name": "合作商户",
      "icon": "/images/icons/partner.png",
      "color": "#9C27B0"
    },
    "relay": {
      "name": "接力站",
      "icon": "/images/icons/relay.png",
      "color": "#F44336"
    }
  }
}